{    
"type": "FeatureCollection",
"name": "Iceland breweries",
"crs": { "type": "name", "properties": { "name": "urn:ogc:def:crs:OGC:1.3:CRS84" } },
"features": [
{ "type": "Feature", "properties": {"OBJECTID":1, "Name": "Einstök Ölgerð", "description": "fotos/Beer-PNG-2.png" }, "geometry": { "type": "Point", "coordinates": [ -18.0951914, 65.6899168 ] } },
{ "type": "Feature", "properties": {"OBJECTID":2,"Name": "Bruggsmiðjan Kaldi Brewery", "description": null }, "geometry": { "type": "Point", "coordinates": [ -18.3574784, 65.944119 ] } },
{ "type": "Feature", "properties": { "OBJECTID":3,"Name": "Segull 67 Brewery", "description": null }, "geometry": { "type": "Point", "coordinates": [ -18.9041771, 66.150557 ] } },
{ "type": "Feature", "properties": {"OBJECTID":4, "Name": "ASKUR TAPROOM - Bar & Brewery", "description": null }, "geometry": { "type": "Point", "coordinates": [ -14.3909904, 65.2589574 ] } },
{ "type": "Feature", "properties": {"OBJECTID":5, "Name": "Steðji", "description": null }, "geometry": { "type": "Point", "coordinates": [ -21.4846659, 64.6153881 ] } },
{ "type": "Feature", "properties": {"OBJECTID":6, "Name": "Ölvisholt Brewery", "description": null }, "geometry": { "type": "Point", "coordinates": [ -20.7718112, 63.9624625 ] } },
{ "type": "Feature", "properties": {"OBJECTID":7, "Name": "Ölverk Pizza & Brewery", "description": null }, "geometry": { "type": "Point", "coordinates": [ -21.1890779, 63.9975944 ] } },
{ "type": "Feature", "properties": {"OBJECTID":8, "Name": "RVK Brewing Company", "description": null }, "geometry": { "type": "Point", "coordinates": [ -21.9003093, 64.1407248 ] } },
{ "type": "Feature", "properties": {"OBJECTID":9, "Name": "Ægisgarður", "description": null }, "geometry": { "type": "Point", "coordinates": [ -21.9398188, 64.1580534 ] } },
{ "type": "Feature", "properties": { "OBJECTID":10, "Name": "The Brothers Brewery", "description": null }, "geometry": { "type": "Point", "coordinates": [ -20.2689998, 63.4415724 ] } },
{ "type": "Feature", "properties": { "OBJECTID":11, "Name": "Smiðjan Brugghús", "description": null }, "geometry": { "type": "Point", "coordinates": [ -19.010593, 63.41726 ] } },
{ "type": "Feature", "properties": { "OBJECTID":12, "Name": "Jon Riki", "description": null }, "geometry": { "type": "Point", "coordinates": [ -15.4856806, 64.2802981 ] } },
{ "type": "Feature", "properties": {"OBJECTID":13, "Name": "Dokkan Brugghús", "description": null }, "geometry": { "type": "Point", "coordinates": [ -23.1207777, 66.0690928 ] } },
{ "type": "Feature", "properties": {"OBJECTID":14, "Name": "Beljandi Brewery", "description": null }, "geometry": { "type": "Point", "coordinates": [ -14.0086181, 64.7920694 ] } }
]
}
